{"frame_index": 0, "ts_unix": 1780539470.1127, "ts_capture": 1780539470.0472, "relative_time": 0.0107, "linear_velocity": 0.0, "angular_velocity": 0.0, "robot_locked": false, "braking": false, "accelerometer_x": 0.99755859375, "accelerometer_y": -0.00048828125, "accelerometer_z": -0.1259765625, "gyroscope_x": 0.0, "gyroscope_y": 0.0, "gyroscope_z": 0.0, "magnetometer_x": -16616.0, "magnetometer_y": 592.0, "magnetometer_z": 4522.0, "roll": -179.835205078125, "pitch": -82.8424072265625, "yaw": -92.7630615234375, "gps_latitude": 45.458145800500006, "gps_longitude": -122.85453545616669, "gps_altitude": 133.3987, "gps_fix": "GPS_FIX", "gps_satellites": 16, "gps_hdop": 1.4, "gps_speed_kmh": 0.163, "orientation": 197.8, "gps_solution_status": "INSUFFICIENT_OBS", "gps_position_type": "NONE"}
{"frame_index": 1, "ts_unix": 1780539470.176, "ts_capture": 1780539470.1142, "relative_time": 0.074, "linear_velocity": 0.0, "angular_velocity": 0.0, "robot_locked": false, "braking": false, "accelerometer_x": 0.99755859375, "accelerometer_y": -0.00048828125, "accelerometer_z": -0.125, "gyroscope_x": 0.0, "gyroscope_y": 0.0, "gyroscope_z": 0.0, "magnetometer_x": -16596.0, "magnetometer_y": 597.0, "magnetometer_z": 4532.0, "roll": -179.8297119140625, "pitch": -82.8424072265625, "yaw": -92.7630615234375, "gps_latitude": 45.458145800500006, "gps_longitude": -122.85453545616669, "gps_altitude": 133.3987, "gps_fix": "GPS_FIX", "gps_satellites": 16, "gps_hdop": 1.4, "gps_speed_kmh": 0.163, "orientation": 197.8, "gps_solution_status": "INSUFFICIENT_OBS", "gps_position_type": "NONE"}
{"frame_index": 2, "ts_unix": 1780539470.2439, "ts_capture": 1780539470.1812, "relative_time": 0.1419, "linear_velocity": 0.0, "angular_velocity": 0.0, "robot_locked": false, "braking": false, "accelerometer_x": 0.99755859375, "accelerometer_y": -0.00048828125, "accelerometer_z": -0.12548828125, "gyroscope_x": 0.0, "gyroscope_y": 0.0, "gyroscope_z": 0.0, "magnetometer_x": -16596.0, "magnetometer_y": 597.0, "magnetometer_z": 4532.0, "roll": -179.8297119140625, "pitch": -82.8424072265625, "yaw": -92.7630615234375, "gps_latitude": 45.458145800500006, "gps_longitude": -122.85453545616669, "gps_altitude": 133.3987, "gps_fix": "GPS_FIX", "gps_satellites": 16, "gps_hdop": 1.4, "gps_speed_kmh": 0.163, "orientation": 197.8, "gps_solution_status": "INSUFFICIENT_OBS", "gps_position_type": "NONE"}
{"frame_index": 3, "ts_unix": 1780539470.3103, "ts_capture": 1780539470.2478, "relative_time": 0.2083, "linear_velocity": 0.0, "angular_velocity": 0.0, "robot_locked": false, "braking": false, "accelerometer_x": 0.99755859375, "accelerometer_y": -0.00048828125, "accelerometer_z": -0.12548828125, "gyroscope_x": 0.0, "gyroscope_y": 0.0, "gyroscope_z": 0.0, "magnetometer_x": -16619.0, "magnetometer_y": 595.0, "magnetometer_z": 4525.0, "roll": -179.8297119140625, "pitch": -82.8424072265625, "yaw": -92.7630615234375, "gps_latitude": 45.458145800500006, "gps_longitude": -122.85453545616669, "gps_altitude": 133.3987, "gps_fix": "GPS_FIX", "gps_satellites": 16, "gps_hdop": 1.4, "gps_speed_kmh": 0.163, "orientation": 197.8, "gps_solution_status": "INSUFFICIENT_OBS", "gps_position_type": "NONE"}
{"frame_index": 4, "ts_unix": 1780539470.3773, "ts_capture": 1780539470.3145, "relative_time": 0.2753, "linear_velocity": 0.0, "angular_velocity": 0.0, "robot_locked": false, "braking": false, "accelerometer_x": 0.99560546875, "accelerometer_y": -0.00048828125, "accelerometer_z": -0.125, "gyroscope_x": 0.0, "gyroscope_y": 0.0, "gyroscope_z": 0.0, "magnetometer_x": -16606.0, "magnetometer_y": 583.0, "magnetometer_z": 4514.0, "roll": -179.82421875, "pitch": -82.8424072265625, "yaw": -92.7630615234375, "gps_latitude": 45.458145800500006, "gps_longitude": -122.85453545616669, "gps_altitude": 133.3987, "gps_fix": "GPS_FIX", "gps_satellites": 16, "gps_hdop": 1.4, "gps_speed_kmh": 0.163, "orientation": 197.8, "gps_solution_status": "INSUFFICIENT_OBS", "gps_position_type": "NONE"}
{"frame_index": 5, "ts_unix": 1780539470.4441, "ts_capture": 1780539470.3814, "relative_time": 0.3421, "linear_velocity": 0.0, "angular_velocity": 0.0, "robot_locked": false, "braking": false, "accelerometer_x": 0.9970703125, "accelerometer_y": -0.00048828125, "accelerometer_z": -0.125, "gyroscope_x": 0.0, "gyroscope_y": 0.0, "gyroscope_z": 0.0, "magnetometer_x": -16606.0, "magnetometer_y": 583.0, "magnetometer_z": 4514.0, "roll": -179.82421875, "pitch": -82.8424072265625, "yaw": -92.7630615234375, "gps_latitude": 45.458145800500006, "gps_longitude": -122.85453545616669, "gps_altitude": 133.3987, "gps_fix": "GPS_FIX", "gps_satellites": 16, "gps_hdop": 1.4, "gps_speed_kmh": 0.163, "orientation": 197.8, "gps_solution_status": "INSUFFICIENT_OBS", "gps_position_type": "NONE"}
{"frame_index": 6, "ts_unix": 1780539470.5107, "ts_capture": 1780539470.4482, "relative_time": 0.4087, "linear_velocity": 0.0, "angular_velocity": 0.0, "robot_locked": false, "braking": false, "accelerometer_x": 0.9970703125, "accelerometer_y": -0.00048828125, "accelerometer_z": -0.125, "gyroscope_x": 0.0, "gyroscope_y": 0.0, "gyroscope_z": 0.0, "magnetometer_x": -16599.0, "magnetometer_y": 588.0, "magnetometer_z": 4544.0, "roll": -179.82421875, "pitch": -82.8424072265625, "yaw": -92.7630615234375, "gps_latitude": 45.458145800500006, "gps_longitude": -122.85453545616669, "gps_altitude": 133.3987, "gps_fix": "GPS_FIX", "gps_satellites": 16, "gps_hdop": 1.4, "gps_speed_kmh": 0.163, "orientation": 197.8, "gps_solution_status": "INSUFFICIENT_OBS", "gps_position_type": "NONE"}
{"frame_index": 7, "ts_unix": 1780539470.5782, "ts_capture": 1780539470.5147, "relative_time": 0.4762, "linear_velocity": 0.0, "angular_velocity": 0.0, "robot_locked": false, "braking": false, "accelerometer_x": 0.99755859375, "accelerometer_y": 0.0, "accelerometer_z": -0.12548828125, "gyroscope_x": 0.0, "gyroscope_y": 0.0, "gyroscope_z": 0.0, "magnetometer_x": -16605.0, "magnetometer_y": 586.0, "magnetometer_z": 4521.0, "roll": -179.82421875, "pitch": -82.8424072265625, "yaw": -92.7630615234375, "gps_latitude": 45.458145800500006, "gps_longitude": -122.85453545616669, "gps_altitude": 133.3987, "gps_fix": "GPS_FIX", "gps_satellites": 16, "gps_hdop": 1.4, "gps_speed_kmh": 0.163, "orientation": 197.8, "gps_solution_status": "INSUFFICIENT_OBS", "gps_position_type": "NONE"}
{"frame_index": 8, "ts_unix": 1780539470.6518, "ts_capture": 1780539470.5819, "relative_time": 0.5498, "linear_velocity": 0.0, "angular_velocity": 0.0, "robot_locked": false, "braking": false, "accelerometer_x": 0.998046875, "accelerometer_y": -0.00048828125, "accelerometer_z": -0.12548828125, "gyroscope_x": 0.0, "gyroscope_y": 0.0, "gyroscope_z": 0.0, "magnetometer_x": -16605.0, "magnetometer_y": 586.0, "magnetometer_z": 4521.0, "roll": -179.82421875, "pitch": -82.8424072265625, "yaw": -92.7630615234375, "gps_latitude": 45.458145800500006, "gps_longitude": -122.85453545616669, "gps_altitude": 133.3987, "gps_fix": "GPS_FIX", "gps_satellites": 16, "gps_hdop": 1.4, "gps_speed_kmh": 0.163, "orientation": 197.8, "gps_solution_status": "INSUFFICIENT_OBS", "gps_position_type": "NONE"}
{"frame_index": 9, "ts_unix": 1780539470.7109, "ts_capture": 1780539470.6488, "relative_time": 0.6089, "linear_velocity": 0.0, "angular_velocity": 0.0, "robot_locked": false, "braking": false, "accelerometer_x": 0.998046875, "accelerometer_y": -0.00048828125, "accelerometer_z": -0.12548828125, "gyroscope_x": 0.0, "gyroscope_y": 0.0, "gyroscope_z": 0.0, "magnetometer_x": -16603.0, "magnetometer_y": 591.0, "magnetometer_z": 4518.0, "roll": -179.8187255859375, "pitch": -82.8424072265625, "yaw": -92.7630615234375, "gps_latitude": 45.458145800500006, "gps_longitude": -122.85453545616669, "gps_altitude": 133.3987, "gps_fix": "GPS_FIX", "gps_satellites": 16, "gps_hdop": 1.4, "gps_speed_kmh": 0.163, "orientation": 197.8, "gps_solution_status": "INSUFFICIENT_OBS", "gps_position_type": "NONE"}
{"frame_index": 10, "ts_unix": 1780539470.7778, "ts_capture": 1780539470.7151, "relative_time": 0.6759, "linear_velocity": 0.0, "angular_velocity": 0.0, "robot_locked": false, "braking": false, "accelerometer_x": 0.998046875, "accelerometer_y": 0.0, "accelerometer_z": -0.1259765625, "gyroscope_x": 0.0, "gyroscope_y": 0.0, "gyroscope_z": 0.0, "magnetometer_x": -16610.0, "magnetometer_y": 596.0, "magnetometer_z": 4520.0, "roll": -179.8187255859375, "pitch": -82.8424072265625, "yaw": -92.7630615234375, "gps_latitude": 45.458145800500006, "gps_longitude": -122.85453545616669, "gps_altitude": 133.3987, "gps_fix": "GPS_FIX", "gps_satellites": 16, "gps_hdop": 1.4, "gps_speed_kmh": 0.163, "orientation": 197.8, "gps_solution_status": "INSUFFICIENT_OBS", "gps_position_type": "NONE"}
{"frame_index": 11, "ts_unix": 1780539470.8449, "ts_capture": 1780539470.7823, "relative_time": 0.7429, "linear_velocity": 0.0, "angular_velocity": 0.0, "robot_locked": false, "braking": false, "accelerometer_x": 0.9970703125, "accelerometer_y": -0.00048828125, "accelerometer_z": -0.12548828125, "gyroscope_x": 0.0, "gyroscope_y": 0.0, "gyroscope_z": 0.0, "magnetometer_x": -16610.0, "magnetometer_y": 596.0, "magnetometer_z": 4520.0, "roll": -179.8187255859375, "pitch": -82.8424072265625, "yaw": -92.7630615234375, "gps_latitude": 45.458145800500006, "gps_longitude": -122.85453545616669, "gps_altitude": 133.3987, "gps_fix": "GPS_FIX", "gps_satellites": 16, "gps_hdop": 1.4, "gps_speed_kmh": 0.163, "orientation": 197.8, "gps_solution_status": "INSUFFICIENT_OBS", "gps_position_type": "NONE"}
{"frame_index": 12, "ts_unix": 1780539470.9109, "ts_capture": 1780539470.8491, "relative_time": 0.8089, "linear_velocity": 0.0, "angular_velocity": 0.0, "robot_locked": false, "braking": false, "accelerometer_x": 0.9970703125, "accelerometer_y": -0.00048828125, "accelerometer_z": -0.12548828125, "gyroscope_x": 0.0, "gyroscope_y": 0.0, "gyroscope_z": 0.0, "magnetometer_x": -16615.0, "magnetometer_y": 596.0, "magnetometer_z": 4519.0, "roll": -179.8187255859375, "pitch": -82.8424072265625, "yaw": -92.7630615234375, "gps_latitude": 45.458145800500006, "gps_longitude": -122.85453545616669, "gps_altitude": 133.3987, "gps_fix": "GPS_FIX", "gps_satellites": 16, "gps_hdop": 1.4, "gps_speed_kmh": 0.163, "orientation": 197.8, "gps_solution_status": "INSUFFICIENT_OBS", "gps_position_type": "NONE"}
{"frame_index": 13, "ts_unix": 1780539470.9789, "ts_capture": 1780539470.9155, "relative_time": 0.8769, "linear_velocity": 0.0, "angular_velocity": 0.0, "robot_locked": false, "braking": false, "accelerometer_x": 0.99658203125, "accelerometer_y": -0.00048828125, "accelerometer_z": -0.12548828125, "gyroscope_x": 0.0, "gyroscope_y": 0.0, "gyroscope_z": 0.0, "magnetometer_x": -16582.0, "magnetometer_y": 592.0, "magnetometer_z": 4505.0, "roll": -179.8187255859375, "pitch": -82.8424072265625, "yaw": -92.7630615234375, "gps_latitude": 45.458145800500006, "gps_longitude": -122.85453545616669, "gps_altitude": 133.3987, "gps_fix": "GPS_FIX", "gps_satellites": 16, "gps_hdop": 1.4, "gps_speed_kmh": 0.163, "orientation": 197.8, "gps_solution_status": "INSUFFICIENT_OBS", "gps_position_type": "NONE"}
{"frame_index": 14, "ts_unix": 1780539471.0454, "ts_capture": 1780539470.9825, "relative_time": 0.9434, "linear_velocity": 0.0, "angular_velocity": 0.0, "robot_locked": false, "braking": false, "accelerometer_x": 0.9970703125, "accelerometer_y": -0.0009765625, "accelerometer_z": -0.12548828125, "gyroscope_x": 0.0, "gyroscope_y": 0.0, "gyroscope_z": 0.0, "magnetometer_x": -16582.0, "magnetometer_y": 592.0, "magnetometer_z": 4505.0, "roll": -179.8187255859375, "pitch": -82.8424072265625, "yaw": -92.7630615234375, "gps_latitude": 45.458145800500006, "gps_longitude": -122.85453545616669, "gps_altitude": 133.3987, "gps_fix": "GPS_FIX", "gps_satellites": 16, "gps_hdop": 1.4, "gps_speed_kmh": 0.163, "orientation": 197.8, "gps_solution_status": "INSUFFICIENT_OBS", "gps_position_type": "NONE"}
{"frame_index": 15, "ts_unix": 1780539471.1122, "ts_capture": 1780539471.0494, "relative_time": 1.0102, "linear_velocity": 0.0, "angular_velocity": 0.0, "robot_locked": false, "braking": false, "accelerometer_x": 0.9970703125, "accelerometer_y": -0.0009765625, "accelerometer_z": -0.12548828125, "gyroscope_x": 0.0, "gyroscope_y": 0.0, "gyroscope_z": 0.0, "magnetometer_x": -16602.0, "magnetometer_y": 595.0, "magnetometer_z": 4512.0, "roll": -179.8187255859375, "pitch": -82.8424072265625, "yaw": -92.7630615234375, "gps_latitude": 45.458145800500006, "gps_longitude": -122.85453545616669, "gps_altitude": 133.3987, "gps_fix": "GPS_FIX", "gps_satellites": 16, "gps_hdop": 1.4, "gps_speed_kmh": 0.163, "orientation": 197.8, "gps_solution_status": "INSUFFICIENT_OBS", "gps_position_type": "NONE"}
{"frame_index": 16, "ts_unix": 1780539471.1783, "ts_capture": 1780539471.1159, "relative_time": 1.0763, "linear_velocity": 0.0, "angular_velocity": 0.0, "robot_locked": false, "braking": false, "accelerometer_x": 0.99755859375, "accelerometer_y": -0.00048828125, "accelerometer_z": -0.125, "gyroscope_x": 0.0, "gyroscope_y": 0.0, "gyroscope_z": 0.0, "magnetometer_x": -16591.0, "magnetometer_y": 590.0, "magnetometer_z": 4517.0, "roll": -179.813232421875, "pitch": -82.8424072265625, "yaw": -92.7630615234375, "gps_latitude": 45.458145800500006, "gps_longitude": -122.85453545616669, "gps_altitude": 133.3987, "gps_fix": "GPS_FIX", "gps_satellites": 16, "gps_hdop": 1.4, "gps_speed_kmh": 0.163, "orientation": 197.8, "gps_solution_status": "INSUFFICIENT_OBS", "gps_position_type": "NONE"}
{"frame_index": 17, "ts_unix": 1780539471.2451, "ts_capture": 1780539471.1831, "relative_time": 1.1431, "linear_velocity": 0.0, "angular_velocity": 0.0, "robot_locked": false, "braking": false, "accelerometer_x": 0.9970703125, "accelerometer_y": 0.0, "accelerometer_z": -0.125, "gyroscope_x": 0.0, "gyroscope_y": 0.0, "gyroscope_z": 0.0, "magnetometer_x": -16591.0, "magnetometer_y": 590.0, "magnetometer_z": 4517.0, "roll": -179.813232421875, "pitch": -82.8424072265625, "yaw": -92.7630615234375, "gps_latitude": 45.458145800500006, "gps_longitude": -122.85453545616669, "gps_altitude": 133.3987, "gps_fix": "GPS_FIX", "gps_satellites": 16, "gps_hdop": 1.4, "gps_speed_kmh": 0.163, "orientation": 197.8, "gps_solution_status": "INSUFFICIENT_OBS", "gps_position_type": "NONE"}
{"frame_index": 18, "ts_unix": 1780539471.3131, "ts_capture": 1780539471.2498, "relative_time": 1.2111, "linear_velocity": 0.0, "angular_velocity": 0.0, "robot_locked": false, "braking": false, "accelerometer_x": 0.9970703125, "accelerometer_y": 0.0, "accelerometer_z": -0.125, "gyroscope_x": 0.0, "gyroscope_y": 0.0, "gyroscope_z": 0.0, "magnetometer_x": -16598.0, "magnetometer_y": 581.0, "magnetometer_z": 4494.0, "roll": -179.8077392578125, "pitch": -82.8424072265625, "yaw": -92.7630615234375, "gps_latitude": 45.458145800500006, "gps_longitude": -122.85453545616669, "gps_altitude": 133.3987, "gps_fix": "GPS_FIX", "gps_satellites": 16, "gps_hdop": 1.4, "gps_speed_kmh": 0.163, "orientation": 197.8, "gps_solution_status": "INSUFFICIENT_OBS", "gps_position_type": "NONE"}
{"frame_index": 19, "ts_unix": 1780539471.3796, "ts_capture": 1780539471.3163, "relative_time": 1.2776, "linear_velocity": 0.0, "angular_velocity": 0.0, "robot_locked": false, "braking": false, "accelerometer_x": 0.9970703125, "accelerometer_y": 0.0, "accelerometer_z": -0.1259765625, "gyroscope_x": 0.0, "gyroscope_y": 0.0, "gyroscope_z": 0.0, "magnetometer_x": -16599.0, "magnetometer_y": 590.0, "magnetometer_z": 4496.0, "roll": -179.813232421875, "pitch": -82.8424072265625, "yaw": -92.7630615234375, "gps_latitude": 45.458145800500006, "gps_longitude": -122.85453545616669, "gps_altitude": 133.3987, "gps_fix": "GPS_FIX", "gps_satellites": 16, "gps_hdop": 1.4, "gps_speed_kmh": 0.163, "orientation": 197.8, "gps_solution_status": "INSUFFICIENT_OBS", "gps_position_type": "NONE"}
{"frame_index": 20, "ts_unix": 1780539471.4457, "ts_capture": 1780539471.3834, "relative_time": 1.3437, "linear_velocity": 0.0, "angular_velocity": 0.0, "robot_locked": false, "braking": false, "accelerometer_x": 0.9970703125, "accelerometer_y": 0.0, "accelerometer_z": -0.12548828125, "gyroscope_x": 0.0, "gyroscope_y": 0.0, "gyroscope_z": 0.0, "magnetometer_x": -16599.0, "magnetometer_y": 590.0, "magnetometer_z": 4496.0, "roll": -179.813232421875, "pitch": -82.8424072265625, "yaw": -92.7630615234375, "gps_latitude": 45.458145800500006, "gps_longitude": -122.85453545616669, "gps_altitude": 133.3987, "gps_fix": "GPS_FIX", "gps_satellites": 16, "gps_hdop": 1.4, "gps_speed_kmh": 0.163, "orientation": 197.8, "gps_solution_status": "INSUFFICIENT_OBS", "gps_position_type": "NONE"}
{"frame_index": 21, "ts_unix": 1780539471.5122, "ts_capture": 1780539471.4505, "relative_time": 1.4102, "linear_velocity": 0.0, "angular_velocity": 0.0, "robot_locked": false, "braking": false, "accelerometer_x": 0.9970703125, "accelerometer_y": 0.0, "accelerometer_z": -0.12548828125, "gyroscope_x": 0.0, "gyroscope_y": 0.0, "gyroscope_z": 0.0, "magnetometer_x": -16606.0, "magnetometer_y": 597.0, "magnetometer_z": 4522.0, "roll": -179.813232421875, "pitch": -82.8424072265625, "yaw": -92.7630615234375, "gps_latitude": 45.458145800500006, "gps_longitude": -122.85453545616669, "gps_altitude": 133.3987, "gps_fix": "GPS_FIX", "gps_satellites": 16, "gps_hdop": 1.4, "gps_speed_kmh": 0.163, "orientation": 197.8, "gps_solution_status": "INSUFFICIENT_OBS", "gps_position_type": "NONE"}
{"frame_index": 22, "ts_unix": 1780539471.58, "ts_capture": 1780539471.5168, "relative_time": 1.478, "linear_velocity": 0.0, "angular_velocity": 0.0, "robot_locked": false, "braking": false, "accelerometer_x": 0.99658203125, "accelerometer_y": 0.0, "accelerometer_z": -0.1259765625, "gyroscope_x": 0.0, "gyroscope_y": 0.0, "gyroscope_z": 0.0, "magnetometer_x": -16578.0, "magnetometer_y": 591.0, "magnetometer_z": 4540.0, "roll": -179.813232421875, "pitch": -82.8369140625, "yaw": -92.7630615234375, "gps_latitude": 45.458145800500006, "gps_longitude": -122.85453545616669, "gps_altitude": 133.3987, "gps_fix": "GPS_FIX", "gps_satellites": 16, "gps_hdop": 1.4, "gps_speed_kmh": 0.163, "orientation": 197.8, "gps_solution_status": "INSUFFICIENT_OBS", "gps_position_type": "NONE"}
{"frame_index": 23, "ts_unix": 1780539471.6462, "ts_capture": 1780539471.5839, "relative_time": 1.5442, "linear_velocity": 0.0, "angular_velocity": 0.0, "robot_locked": false, "braking": false, "accelerometer_x": 0.9970703125, "accelerometer_y": -0.0009765625, "accelerometer_z": -0.125, "gyroscope_x": 0.0, "gyroscope_y": 0.0, "gyroscope_z": 0.0, "magnetometer_x": -16578.0, "magnetometer_y": 591.0, "magnetometer_z": 4540.0, "roll": -179.813232421875, "pitch": -82.8369140625, "yaw": -92.7630615234375, "gps_latitude": 45.458145800500006, "gps_longitude": -122.85453545616669, "gps_altitude": 133.3987, "gps_fix": "GPS_FIX", "gps_satellites": 16, "gps_hdop": 1.4, "gps_speed_kmh": 0.163, "orientation": 197.8, "gps_solution_status": "INSUFFICIENT_OBS", "gps_position_type": "NONE"}
{"frame_index": 24, "ts_unix": 1780539471.7131, "ts_capture": 1780539471.6515, "relative_time": 1.6111, "linear_velocity": 0.0, "angular_velocity": 0.0, "robot_locked": false, "braking": false, "accelerometer_x": 0.9970703125, "accelerometer_y": -0.0009765625, "accelerometer_z": -0.125, "gyroscope_x": 0.0, "gyroscope_y": 0.0, "gyroscope_z": 0.0, "magnetometer_x": -16586.0, "magnetometer_y": 590.0, "magnetometer_z": 4512.0, "roll": -179.813232421875, "pitch": -82.8369140625, "yaw": -92.7630615234375, "gps_latitude": 45.458145800500006, "gps_longitude": -122.85453545616669, "gps_altitude": 133.3987, "gps_fix": "GPS_FIX", "gps_satellites": 16, "gps_hdop": 1.4, "gps_speed_kmh": 0.163, "orientation": 197.8, "gps_solution_status": "INSUFFICIENT_OBS", "gps_position_type": "NONE"}
{"frame_index": 25, "ts_unix": 1780539471.7793, "ts_capture": 1780539471.7171, "relative_time": 1.6773, "linear_velocity": 0.0, "angular_velocity": 0.0, "robot_locked": false, "braking": false, "accelerometer_x": 0.9970703125, "accelerometer_y": -0.00048828125, "accelerometer_z": -0.12548828125, "gyroscope_x": 0.0, "gyroscope_y": 0.0, "gyroscope_z": 0.0, "magnetometer_x": -16599.0, "magnetometer_y": 579.0, "magnetometer_z": 4516.0, "roll": -179.8077392578125, "pitch": -82.8369140625, "yaw": -92.7630615234375, "gps_latitude": 45.458145800500006, "gps_longitude": -122.85453545616669, "gps_altitude": 133.3987, "gps_fix": "GPS_FIX", "gps_satellites": 16, "gps_hdop": 1.4, "gps_speed_kmh": 0.163, "orientation": 197.8, "gps_solution_status": "INSUFFICIENT_OBS", "gps_position_type": "NONE"}
{"frame_index": 26, "ts_unix": 1780539471.8456, "ts_capture": 1780539471.7842, "relative_time": 1.7436, "linear_velocity": 0.0, "angular_velocity": 0.0, "robot_locked": false, "braking": false, "accelerometer_x": 0.9970703125, "accelerometer_y": -0.00048828125, "accelerometer_z": -0.125, "gyroscope_x": 0.0, "gyroscope_y": 0.0, "gyroscope_z": 0.0, "magnetometer_x": -16599.0, "magnetometer_y": 579.0, "magnetometer_z": 4516.0, "roll": -179.8077392578125, "pitch": -82.8369140625, "yaw": -92.7630615234375, "gps_latitude": 45.458145800500006, "gps_longitude": -122.85453545616669, "gps_altitude": 133.3987, "gps_fix": "GPS_FIX", "gps_satellites": 16, "gps_hdop": 1.4, "gps_speed_kmh": 0.163, "orientation": 197.8, "gps_solution_status": "INSUFFICIENT_OBS", "gps_position_type": "NONE"}
{"frame_index": 27, "ts_unix": 1780539471.9133, "ts_capture": 1780539471.8515, "relative_time": 1.8113, "linear_velocity": 0.0, "angular_velocity": 0.0, "robot_locked": false, "braking": false, "accelerometer_x": 0.9970703125, "accelerometer_y": -0.00048828125, "accelerometer_z": -0.125, "gyroscope_x": 0.0, "gyroscope_y": 0.0, "gyroscope_z": 0.0, "magnetometer_x": -16580.0, "magnetometer_y": 600.0, "magnetometer_z": 4509.0, "roll": -179.8077392578125, "pitch": -82.8369140625, "yaw": -92.7630615234375, "gps_latitude": 45.458145800500006, "gps_longitude": -122.85453545616669, "gps_altitude": 133.3987, "gps_fix": "GPS_FIX", "gps_satellites": 16, "gps_hdop": 1.4, "gps_speed_kmh": 0.163, "orientation": 197.8, "gps_solution_status": "INSUFFICIENT_OBS", "gps_position_type": "NONE"}
{"frame_index": 28, "ts_unix": 1780539471.9787, "ts_capture": 1780539471.9179, "relative_time": 1.8767, "linear_velocity": 0.0, "angular_velocity": 0.0, "robot_locked": false, "braking": false, "accelerometer_x": 0.99755859375, "accelerometer_y": 0.0, "accelerometer_z": -0.12646484375, "gyroscope_x": 0.0, "gyroscope_y": 0.0, "gyroscope_z": 0.0, "magnetometer_x": -16578.0, "magnetometer_y": 588.0, "magnetometer_z": 4515.0, "roll": -179.80224609375, "pitch": -82.8369140625, "yaw": -92.7630615234375, "gps_latitude": 45.458145800500006, "gps_longitude": -122.85453545616669, "gps_altitude": 133.3987, "gps_fix": "GPS_FIX", "gps_satellites": 16, "gps_hdop": 1.4, "gps_speed_kmh": 0.163, "orientation": 197.8, "gps_solution_status": "INSUFFICIENT_OBS", "gps_position_type": "NONE"}
{"frame_index": 29, "ts_unix": 1780539472.0437, "ts_capture": 1780539471.9858, "relative_time": 1.9417, "linear_velocity": 0.0, "angular_velocity": 0.0, "robot_locked": false, "braking": false, "accelerometer_x": 0.9970703125, "accelerometer_y": -0.00048828125, "accelerometer_z": -0.125, "gyroscope_x": 0.0, "gyroscope_y": 0.0, "gyroscope_z": 0.0, "magnetometer_x": -16578.0, "magnetometer_y": 588.0, "magnetometer_z": 4515.0, "roll": -179.80224609375, "pitch": -82.8369140625, "yaw": -92.7630615234375, "gps_latitude": 45.458141854500006, "gps_longitude": -122.85453832516666, "gps_altitude": 133.7428, "gps_fix": "GPS_FIX", "gps_satellites": 13, "gps_hdop": 1.0, "gps_speed_kmh": 0.163, "orientation": 197.8, "gps_solution_status": "INSUFFICIENT_OBS", "gps_position_type": "NONE"}
{"frame_index": 30, "ts_unix": 1780539472.1111, "ts_capture": 1780539472.0515, "relative_time": 2.0091, "linear_velocity": 0.0, "angular_velocity": 0.0, "robot_locked": false, "braking": false, "accelerometer_x": 0.9970703125, "accelerometer_y": -0.00048828125, "accelerometer_z": -0.125, "gyroscope_x": 0.0, "gyroscope_y": 0.0, "gyroscope_z": 0.0, "magnetometer_x": -16596.0, "magnetometer_y": 591.0, "magnetometer_z": 4548.0, "roll": -179.80224609375, "pitch": -82.8369140625, "yaw": -92.7630615234375, "gps_latitude": 45.458141854500006, "gps_longitude": -122.85453832516666, "gps_altitude": 133.7428, "gps_fix": "GPS_FIX", "gps_satellites": 13, "gps_hdop": 1.0, "gps_speed_kmh": 2.067, "orientation": 197.8, "gps_solution_status": "INSUFFICIENT_OBS", "gps_position_type": "NONE"}
{"frame_index": 31, "ts_unix": 1780539472.1781, "ts_capture": 1780539472.1183, "relative_time": 2.0761, "linear_velocity": 0.0, "angular_velocity": 0.0, "robot_locked": false, "braking": false, "accelerometer_x": 0.9970703125, "accelerometer_y": 0.0, "accelerometer_z": -0.125, "gyroscope_x": 0.0, "gyroscope_y": 0.0, "gyroscope_z": 0.0, "magnetometer_x": -16602.0, "magnetometer_y": 603.0, "magnetometer_z": 4510.0, "roll": -179.80224609375, "pitch": -82.8369140625, "yaw": -92.7630615234375, "gps_latitude": 45.458141854500006, "gps_longitude": -122.85453832516666, "gps_altitude": 133.7428, "gps_fix": "GPS_FIX", "gps_satellites": 13, "gps_hdop": 1.0, "gps_speed_kmh": 2.067, "orientation": 197.8, "gps_solution_status": "INSUFFICIENT_OBS", "gps_position_type": "NONE"}
{"frame_index": 32, "ts_unix": 1780539472.2433, "ts_capture": 1780539472.185, "relative_time": 2.1414, "linear_velocity": 0.0, "angular_velocity": 0.0, "robot_locked": false, "braking": false, "accelerometer_x": 0.9970703125, "accelerometer_y": -0.00048828125, "accelerometer_z": -0.12548828125, "gyroscope_x": 0.0, "gyroscope_y": 0.0, "gyroscope_z": 0.0, "magnetometer_x": -16602.0, "magnetometer_y": 603.0, "magnetometer_z": 4510.0, "roll": -179.80224609375, "pitch": -82.8369140625, "yaw": -92.7630615234375, "gps_latitude": 45.458141854500006, "gps_longitude": -122.85453832516666, "gps_altitude": 133.7428, "gps_fix": "GPS_FIX", "gps_satellites": 13, "gps_hdop": 1.0, "gps_speed_kmh": 2.067, "orientation": 197.8, "gps_solution_status": "INSUFFICIENT_OBS", "gps_position_type": "NONE"}
{"frame_index": 33, "ts_unix": 1780539472.3121, "ts_capture": 1780539472.2515, "relative_time": 2.2101, "linear_velocity": 0.0, "angular_velocity": 0.0, "robot_locked": false, "braking": false, "accelerometer_x": 0.9970703125, "accelerometer_y": -0.00048828125, "accelerometer_z": -0.12548828125, "gyroscope_x": 0.0, "gyroscope_y": 0.0, "gyroscope_z": 0.0, "magnetometer_x": -16601.0, "magnetometer_y": 593.0, "magnetometer_z": 4539.0, "roll": -179.80224609375, "pitch": -82.8369140625, "yaw": -92.7630615234375, "gps_latitude": 45.458141854500006, "gps_longitude": -122.85453832516666, "gps_altitude": 133.7428, "gps_fix": "GPS_FIX", "gps_satellites": 13, "gps_hdop": 1.0, "gps_speed_kmh": 2.067, "orientation": 197.8, "gps_solution_status": "INSUFFICIENT_OBS", "gps_position_type": "NONE"}
{"frame_index": 34, "ts_unix": 1780539472.3771, "ts_capture": 1780539472.3195, "relative_time": 2.2751, "linear_velocity": 0.0, "angular_velocity": 0.0, "robot_locked": false, "braking": false, "accelerometer_x": 0.9970703125, "accelerometer_y": -0.00048828125, "accelerometer_z": -0.1259765625, "gyroscope_x": 0.0, "gyroscope_y": 0.0, "gyroscope_z": 0.0, "magnetometer_x": -16589.0, "magnetometer_y": 584.0, "magnetometer_z": 4538.0, "roll": -179.80224609375, "pitch": -82.8369140625, "yaw": -92.7630615234375, "gps_latitude": 45.458141854500006, "gps_longitude": -122.85453832516666, "gps_altitude": 133.7428, "gps_fix": "GPS_FIX", "gps_satellites": 13, "gps_hdop": 1.0, "gps_speed_kmh": 2.067, "orientation": 197.8, "gps_solution_status": "INSUFFICIENT_OBS", "gps_position_type": "NONE"}
{"frame_index": 35, "ts_unix": 1780539472.4443, "ts_capture": 1780539472.3852, "relative_time": 2.3423, "linear_velocity": 0.0, "angular_velocity": 0.0, "robot_locked": false, "braking": false, "accelerometer_x": 0.99755859375, "accelerometer_y": -0.00048828125, "accelerometer_z": -0.12451171875, "gyroscope_x": 0.0, "gyroscope_y": 0.0, "gyroscope_z": 0.0, "magnetometer_x": -16589.0, "magnetometer_y": 584.0, "magnetometer_z": 4538.0, "roll": -179.80224609375, "pitch": -82.8369140625, "yaw": -92.7630615234375, "gps_latitude": 45.458141854500006, "gps_longitude": -122.85453832516666, "gps_altitude": 133.7428, "gps_fix": "GPS_FIX", "gps_satellites": 13, "gps_hdop": 1.0, "gps_speed_kmh": 2.067, "orientation": 197.8, "gps_solution_status": "INSUFFICIENT_OBS", "gps_position_type": "NONE"}
{"frame_index": 36, "ts_unix": 1780539472.5119, "ts_capture": 1780539472.4521, "relative_time": 2.4099, "linear_velocity": 0.0, "angular_velocity": 0.0, "robot_locked": false, "braking": false, "accelerometer_x": 0.99755859375, "accelerometer_y": -0.00048828125, "accelerometer_z": -0.12451171875, "gyroscope_x": 0.0, "gyroscope_y": 0.0, "gyroscope_z": 0.0, "magnetometer_x": -16581.0, "magnetometer_y": 604.0, "magnetometer_z": 4521.0, "roll": -179.80224609375, "pitch": -82.8369140625, "yaw": -92.7630615234375, "gps_latitude": 45.458141854500006, "gps_longitude": -122.85453832516666, "gps_altitude": 133.7428, "gps_fix": "GPS_FIX", "gps_satellites": 13, "gps_hdop": 1.0, "gps_speed_kmh": 2.067, "orientation": 197.8, "gps_solution_status": "INSUFFICIENT_OBS", "gps_position_type": "NONE"}
{"frame_index": 37, "ts_unix": 1780539472.5783, "ts_capture": 1780539472.519, "relative_time": 2.4763, "linear_velocity": 0.0, "angular_velocity": 0.0, "robot_locked": false, "braking": false, "accelerometer_x": 0.9970703125, "accelerometer_y": 0.0, "accelerometer_z": -0.12548828125, "gyroscope_x": 0.0, "gyroscope_y": 0.0, "gyroscope_z": 0.0, "magnetometer_x": -16584.0, "magnetometer_y": 595.0, "magnetometer_z": 4534.0, "roll": -179.80224609375, "pitch": -82.8369140625, "yaw": -92.7630615234375, "gps_latitude": 45.458141854500006, "gps_longitude": -122.85453832516666, "gps_altitude": 133.7428, "gps_fix": "GPS_FIX", "gps_satellites": 13, "gps_hdop": 1.0, "gps_speed_kmh": 2.067, "orientation": 197.8, "gps_solution_status": "INSUFFICIENT_OBS", "gps_position_type": "NONE"}
{"frame_index": 38, "ts_unix": 1780539472.6452, "ts_capture": 1780539472.586, "relative_time": 2.5432, "linear_velocity": 0.0, "angular_velocity": 0.0, "robot_locked": false, "braking": false, "accelerometer_x": 0.9970703125, "accelerometer_y": 0.0, "accelerometer_z": -0.125, "gyroscope_x": 0.0, "gyroscope_y": 0.0, "gyroscope_z": 0.0, "magnetometer_x": -16584.0, "magnetometer_y": 595.0, "magnetometer_z": 4534.0, "roll": -179.80224609375, "pitch": -82.8369140625, "yaw": -92.7630615234375, "gps_latitude": 45.458141854500006, "gps_longitude": -122.85453832516666, "gps_altitude": 133.7428, "gps_fix": "GPS_FIX", "gps_satellites": 13, "gps_hdop": 1.0, "gps_speed_kmh": 2.067, "orientation": 197.8, "gps_solution_status": "INSUFFICIENT_OBS", "gps_position_type": "NONE"}
{"frame_index": 39, "ts_unix": 1780539472.7122, "ts_capture": 1780539472.6526, "relative_time": 2.6102, "linear_velocity": 0.0, "angular_velocity": 0.0, "robot_locked": false, "braking": false, "accelerometer_x": 0.9970703125, "accelerometer_y": 0.0, "accelerometer_z": -0.125, "gyroscope_x": 0.0, "gyroscope_y": 0.0, "gyroscope_z": 0.0, "magnetometer_x": -16608.0, "magnetometer_y": 576.0, "magnetometer_z": 4536.0, "roll": -179.80224609375, "pitch": -82.8424072265625, "yaw": -92.7630615234375, "gps_latitude": 45.458141854500006, "gps_longitude": -122.85453832516666, "gps_altitude": 133.7428, "gps_fix": "GPS_FIX", "gps_satellites": 13, "gps_hdop": 1.0, "gps_speed_kmh": 2.067, "orientation": 197.8, "gps_solution_status": "INSUFFICIENT_OBS", "gps_position_type": "NONE"}
{"frame_index": 40, "ts_unix": 1780539472.7784, "ts_capture": 1780539472.7192, "relative_time": 2.6765, "linear_velocity": 0.0, "angular_velocity": 0.0, "robot_locked": false, "braking": false, "accelerometer_x": 0.99755859375, "accelerometer_y": 0.0, "accelerometer_z": -0.12548828125, "gyroscope_x": 0.0, "gyroscope_y": 0.0, "gyroscope_z": 0.0, "magnetometer_x": -16608.0, "magnetometer_y": 590.0, "magnetometer_z": 4525.0, "roll": -179.80224609375, "pitch": -82.8424072265625, "yaw": -92.7630615234375, "gps_latitude": 45.458141854500006, "gps_longitude": -122.85453832516666, "gps_altitude": 133.7428, "gps_fix": "GPS_FIX", "gps_satellites": 13, "gps_hdop": 1.0, "gps_speed_kmh": 2.067, "orientation": 197.8, "gps_solution_status": "INSUFFICIENT_OBS", "gps_position_type": "NONE"}
{"frame_index": 41, "ts_unix": 1780539472.8453, "ts_capture": 1780539472.7861, "relative_time": 2.7433, "linear_velocity": 0.0, "angular_velocity": 0.0, "robot_locked": false, "braking": false, "accelerometer_x": 0.99658203125, "accelerometer_y": 0.0, "accelerometer_z": -0.125, "gyroscope_x": 0.0, "gyroscope_y": 0.0, "gyroscope_z": 0.0, "magnetometer_x": -16608.0, "magnetometer_y": 590.0, "magnetometer_z": 4525.0, "roll": -179.80224609375, "pitch": -82.8424072265625, "yaw": -92.7630615234375, "gps_latitude": 45.458141854500006, "gps_longitude": -122.85453832516666, "gps_altitude": 133.7428, "gps_fix": "GPS_FIX", "gps_satellites": 13, "gps_hdop": 1.0, "gps_speed_kmh": 2.067, "orientation": 197.8, "gps_solution_status": "INSUFFICIENT_OBS", "gps_position_type": "NONE"}
{"frame_index": 42, "ts_unix": 1780539472.9141, "ts_capture": 1780539472.8536, "relative_time": 2.8121, "linear_velocity": 0.0, "angular_velocity": 0.0, "robot_locked": false, "braking": false, "accelerometer_x": 0.99658203125, "accelerometer_y": 0.0, "accelerometer_z": -0.125, "gyroscope_x": 0.0, "gyroscope_y": 0.0, "gyroscope_z": 0.0, "magnetometer_x": -16594.0, "magnetometer_y": 587.0, "magnetometer_z": 4520.0, "roll": -179.8077392578125, "pitch": -82.8424072265625, "yaw": -92.7630615234375, "gps_latitude": 45.458141854500006, "gps_longitude": -122.85453832516666, "gps_altitude": 133.7428, "gps_fix": "GPS_FIX", "gps_satellites": 13, "gps_hdop": 1.0, "gps_speed_kmh": 2.067, "orientation": 197.8, "gps_solution_status": "INSUFFICIENT_OBS", "gps_position_type": "NONE"}
{"frame_index": 43, "ts_unix": 1780539472.9796, "ts_capture": 1780539472.9204, "relative_time": 2.8776, "linear_velocity": 0.0, "angular_velocity": 0.0, "robot_locked": false, "braking": false, "accelerometer_x": 0.9970703125, "accelerometer_y": -0.00048828125, "accelerometer_z": -0.1259765625, "gyroscope_x": 0.0, "gyroscope_y": 0.0, "gyroscope_z": 0.0, "magnetometer_x": -16603.0, "magnetometer_y": 577.0, "magnetometer_z": 4512.0, "roll": -179.8077392578125, "pitch": -82.8424072265625, "yaw": -92.7630615234375, "gps_latitude": 45.458141854500006, "gps_longitude": -122.85453832516666, "gps_altitude": 133.7428, "gps_fix": "GPS_FIX", "gps_satellites": 13, "gps_hdop": 1.0, "gps_speed_kmh": 2.067, "orientation": 197.8, "gps_solution_status": "INSUFFICIENT_OBS", "gps_position_type": "NONE"}
{"frame_index": 44, "ts_unix": 1780539473.048, "ts_capture": 1780539472.9864, "relative_time": 2.946, "linear_velocity": 0.0, "angular_velocity": 0.0, "robot_locked": false, "braking": false, "accelerometer_x": 0.9970703125, "accelerometer_y": 0.0, "accelerometer_z": -0.12548828125, "gyroscope_x": 0.0, "gyroscope_y": 0.0, "gyroscope_z": 0.0, "magnetometer_x": -16603.0, "magnetometer_y": 577.0, "magnetometer_z": 4512.0, "roll": -179.8077392578125, "pitch": -82.8424072265625, "yaw": -92.7630615234375, "gps_latitude": 45.458141854500006, "gps_longitude": -122.85453832516666, "gps_altitude": 133.7428, "gps_fix": "GPS_FIX", "gps_satellites": 13, "gps_hdop": 1.0, "gps_speed_kmh": 2.067, "orientation": 197.8, "gps_solution_status": "INSUFFICIENT_OBS", "gps_position_type": "NONE"}
{"frame_index": 45, "ts_unix": 1780539473.1162, "ts_capture": 1780539473.0534, "relative_time": 3.0142, "linear_velocity": 0.0, "angular_velocity": 0.0, "robot_locked": false, "braking": false, "accelerometer_x": 0.9970703125, "accelerometer_y": 0.0, "accelerometer_z": -0.12548828125, "gyroscope_x": 0.0, "gyroscope_y": 0.0, "gyroscope_z": 0.0, "magnetometer_x": -16600.0, "magnetometer_y": 592.0, "magnetometer_z": 4507.0, "roll": -179.8077392578125, "pitch": -82.8424072265625, "yaw": -92.7630615234375, "gps_latitude": 45.458141854500006, "gps_longitude": -122.85453832516666, "gps_altitude": 133.7428, "gps_fix": "GPS_FIX", "gps_satellites": 13, "gps_hdop": 1.0, "gps_speed_kmh": 2.067, "orientation": 197.8, "gps_solution_status": "INSUFFICIENT_OBS", "gps_position_type": "NONE"}
{"frame_index": 46, "ts_unix": 1780539473.1815, "ts_capture": 1780539473.1202, "relative_time": 3.0795, "linear_velocity": 0.0, "angular_velocity": 0.0, "robot_locked": false, "braking": false, "accelerometer_x": 0.9970703125, "accelerometer_y": -0.00048828125, "accelerometer_z": -0.12548828125, "gyroscope_x": 0.0, "gyroscope_y": 0.0, "gyroscope_z": 0.0, "magnetometer_x": -16624.0, "magnetometer_y": 592.0, "magnetometer_z": 4483.0, "roll": -179.8077392578125, "pitch": -82.8424072265625, "yaw": -92.7630615234375, "gps_latitude": 45.458141854500006, "gps_longitude": -122.85453832516666, "gps_altitude": 133.7428, "gps_fix": "GPS_FIX", "gps_satellites": 13, "gps_hdop": 1.0, "gps_speed_kmh": 2.067, "orientation": 197.8, "gps_solution_status": "INSUFFICIENT_OBS", "gps_position_type": "NONE"}
{"frame_index": 47, "ts_unix": 1780539473.2479, "ts_capture": 1780539473.1869, "relative_time": 3.1459, "linear_velocity": 0.0, "angular_velocity": 0.0, "robot_locked": false, "braking": false, "accelerometer_x": 0.99755859375, "accelerometer_y": -0.0009765625, "accelerometer_z": -0.12548828125, "gyroscope_x": 0.0, "gyroscope_y": 0.0, "gyroscope_z": 0.0, "magnetometer_x": -16624.0, "magnetometer_y": 592.0, "magnetometer_z": 4483.0, "roll": -179.8077392578125, "pitch": -82.8424072265625, "yaw": -92.7630615234375, "gps_latitude": 45.458141854500006, "gps_longitude": -122.85453832516666, "gps_altitude": 133.7428, "gps_fix": "GPS_FIX", "gps_satellites": 13, "gps_hdop": 1.0, "gps_speed_kmh": 2.067, "orientation": 197.8, "gps_solution_status": "INSUFFICIENT_OBS", "gps_position_type": "NONE"}
{"frame_index": 48, "ts_unix": 1780539473.3149, "ts_capture": 1780539473.2602, "relative_time": 3.213, "linear_velocity": 0.0, "angular_velocity": 0.0, "robot_locked": false, "braking": false, "accelerometer_x": 0.99755859375, "accelerometer_y": -0.0009765625, "accelerometer_z": -0.12548828125, "gyroscope_x": 0.0, "gyroscope_y": 0.0, "gyroscope_z": 0.0, "magnetometer_x": -16612.0, "magnetometer_y": 586.0, "magnetometer_z": 4511.0, "roll": -179.8077392578125, "pitch": -82.8424072265625, "yaw": -92.7630615234375, "gps_latitude": 45.458141854500006, "gps_longitude": -122.85453832516666, "gps_altitude": 133.7428, "gps_fix": "GPS_FIX", "gps_satellites": 13, "gps_hdop": 1.0, "gps_speed_kmh": 2.067, "orientation": 197.8, "gps_solution_status": "INSUFFICIENT_OBS", "gps_position_type": "NONE"}
{"frame_index": 49, "ts_unix": 1780539473.381, "ts_capture": 1780539473.3206, "relative_time": 3.2791, "linear_velocity": 0.0, "angular_velocity": 0.0, "robot_locked": false, "braking": false, "accelerometer_x": 0.99609375, "accelerometer_y": 0.0, "accelerometer_z": -0.12548828125, "gyroscope_x": 0.0, "gyroscope_y": 0.0, "gyroscope_z": 0.0, "magnetometer_x": -16612.0, "magnetometer_y": 593.0, "magnetometer_z": 4520.0, "roll": -179.813232421875, "pitch": -82.8424072265625, "yaw": -92.7630615234375, "gps_latitude": 45.458141854500006, "gps_longitude": -122.85453832516666, "gps_altitude": 133.7428, "gps_fix": "GPS_FIX", "gps_satellites": 13, "gps_hdop": 1.0, "gps_speed_kmh": 2.067, "orientation": 197.8, "gps_solution_status": "INSUFFICIENT_OBS", "gps_position_type": "NONE"}
{"frame_index": 50, "ts_unix": 1780539473.4494, "ts_capture": 1780539473.3886, "relative_time": 3.3474, "linear_velocity": 0.0, "angular_velocity": 0.0, "robot_locked": false, "braking": false, "accelerometer_x": 0.9970703125, "accelerometer_y": -0.00048828125, "accelerometer_z": -0.125, "gyroscope_x": 0.0, "gyroscope_y": 0.0, "gyroscope_z": 0.0, "magnetometer_x": -16612.0, "magnetometer_y": 593.0, "magnetometer_z": 4520.0, "roll": -179.813232421875, "pitch": -82.8424072265625, "yaw": -92.7630615234375, "gps_latitude": 45.458141854500006, "gps_longitude": -122.85453832516666, "gps_altitude": 133.7428, "gps_fix": "GPS_FIX", "gps_satellites": 13, "gps_hdop": 1.0, "gps_speed_kmh": 2.067, "orientation": 197.8, "gps_solution_status": "INSUFFICIENT_OBS", "gps_position_type": "NONE"}
{"frame_index": 51, "ts_unix": 1780539473.516, "ts_capture": 1780539473.4542, "relative_time": 3.414, "linear_velocity": 0.0, "angular_velocity": 0.0, "robot_locked": false, "braking": false, "accelerometer_x": 0.9970703125, "accelerometer_y": -0.00048828125, "accelerometer_z": -0.125, "gyroscope_x": 0.0, "gyroscope_y": 0.0, "gyroscope_z": 0.0, "magnetometer_x": -16607.0, "magnetometer_y": 585.0, "magnetometer_z": 4552.0, "roll": -179.8077392578125, "pitch": -82.8424072265625, "yaw": -92.7630615234375, "gps_latitude": 45.458141854500006, "gps_longitude": -122.85453832516666, "gps_altitude": 133.7428, "gps_fix": "GPS_FIX", "gps_satellites": 13, "gps_hdop": 1.0, "gps_speed_kmh": 2.067, "orientation": 197.8, "gps_solution_status": "INSUFFICIENT_OBS", "gps_position_type": "NONE"}
{"frame_index": 52, "ts_unix": 1780539473.5816, "ts_capture": 1780539473.5211, "relative_time": 3.4796, "linear_velocity": 0.0, "angular_velocity": 0.0, "robot_locked": false, "braking": false, "accelerometer_x": 0.9970703125, "accelerometer_y": 0.0, "accelerometer_z": -0.12548828125, "gyroscope_x": 0.0, "gyroscope_y": 0.0, "gyroscope_z": 0.0, "magnetometer_x": -16592.0, "magnetometer_y": 580.0, "magnetometer_z": 4527.0, "roll": -179.813232421875, "pitch": -82.8424072265625, "yaw": -92.7630615234375, "gps_latitude": 45.458141854500006, "gps_longitude": -122.85453832516666, "gps_altitude": 133.7428, "gps_fix": "GPS_FIX", "gps_satellites": 13, "gps_hdop": 1.0, "gps_speed_kmh": 2.067, "orientation": 197.8, "gps_solution_status": "INSUFFICIENT_OBS", "gps_position_type": "NONE"}
{"frame_index": 53, "ts_unix": 1780539473.6492, "ts_capture": 1780539473.5879, "relative_time": 3.5472, "linear_velocity": 0.0, "angular_velocity": 0.0, "robot_locked": false, "braking": false, "accelerometer_x": 0.9970703125, "accelerometer_y": 0.0, "accelerometer_z": -0.12548828125, "gyroscope_x": 0.0, "gyroscope_y": 0.0, "gyroscope_z": 0.0, "magnetometer_x": -16592.0, "magnetometer_y": 580.0, "magnetometer_z": 4527.0, "roll": -179.813232421875, "pitch": -82.8424072265625, "yaw": -92.7630615234375, "gps_latitude": 45.458141854500006, "gps_longitude": -122.85453832516666, "gps_altitude": 133.7428, "gps_fix": "GPS_FIX", "gps_satellites": 13, "gps_hdop": 1.0, "gps_speed_kmh": 2.067, "orientation": 197.8, "gps_solution_status": "INSUFFICIENT_OBS", "gps_position_type": "NONE"}
{"frame_index": 54, "ts_unix": 1780539473.7165, "ts_capture": 1780539473.6549, "relative_time": 3.6145, "linear_velocity": 0.0, "angular_velocity": 0.0, "robot_locked": false, "braking": false, "accelerometer_x": 0.9970703125, "accelerometer_y": 0.0, "accelerometer_z": -0.12548828125, "gyroscope_x": 0.0, "gyroscope_y": 0.0, "gyroscope_z": 0.0, "magnetometer_x": -16609.0, "magnetometer_y": 602.0, "magnetometer_z": 4513.0, "roll": -179.813232421875, "pitch": -82.8424072265625, "yaw": -92.7630615234375, "gps_latitude": 45.458141854500006, "gps_longitude": -122.85453832516666, "gps_altitude": 133.7428, "gps_fix": "GPS_FIX", "gps_satellites": 13, "gps_hdop": 1.0, "gps_speed_kmh": 2.067, "orientation": 197.8, "gps_solution_status": "INSUFFICIENT_OBS", "gps_position_type": "NONE"}
{"frame_index": 55, "ts_unix": 1780539473.7831, "ts_capture": 1780539473.7214, "relative_time": 3.6812, "linear_velocity": 0.0, "angular_velocity": 0.0, "robot_locked": false, "braking": false, "accelerometer_x": 0.9970703125, "accelerometer_y": -0.0009765625, "accelerometer_z": -0.12548828125, "gyroscope_x": 0.0, "gyroscope_y": 0.0, "gyroscope_z": 0.0, "magnetometer_x": -16602.0, "magnetometer_y": 592.0, "magnetometer_z": 4514.0, "roll": -179.8077392578125, "pitch": -82.8424072265625, "yaw": -92.7630615234375, "gps_latitude": 45.458141854500006, "gps_longitude": -122.85453832516666, "gps_altitude": 133.7428, "gps_fix": "GPS_FIX", "gps_satellites": 13, "gps_hdop": 1.0, "gps_speed_kmh": 2.067, "orientation": 197.8, "gps_solution_status": "INSUFFICIENT_OBS", "gps_position_type": "NONE"}
{"frame_index": 56, "ts_unix": 1780539473.8496, "ts_capture": 1780539473.7885, "relative_time": 3.7476, "linear_velocity": 0.0, "angular_velocity": 0.0, "robot_locked": false, "braking": false, "accelerometer_x": 0.9970703125, "accelerometer_y": -0.00048828125, "accelerometer_z": -0.12548828125, "gyroscope_x": 0.0, "gyroscope_y": 0.0, "gyroscope_z": 0.0, "magnetometer_x": -16602.0, "magnetometer_y": 592.0, "magnetometer_z": 4514.0, "roll": -179.8077392578125, "pitch": -82.8424072265625, "yaw": -92.7630615234375, "gps_latitude": 45.458141854500006, "gps_longitude": -122.85453832516666, "gps_altitude": 133.7428, "gps_fix": "GPS_FIX", "gps_satellites": 13, "gps_hdop": 1.0, "gps_speed_kmh": 2.067, "orientation": 197.8, "gps_solution_status": "INSUFFICIENT_OBS", "gps_position_type": "NONE"}
{"frame_index": 57, "ts_unix": 1780539473.9171, "ts_capture": 1780539473.855, "relative_time": 3.8151, "linear_velocity": 0.0, "angular_velocity": 0.0, "robot_locked": false, "braking": false, "accelerometer_x": 0.9970703125, "accelerometer_y": -0.00048828125, "accelerometer_z": -0.12548828125, "gyroscope_x": 0.0, "gyroscope_y": 0.0, "gyroscope_z": 0.0, "magnetometer_x": -16599.0, "magnetometer_y": 582.0, "magnetometer_z": 4525.0, "roll": -179.813232421875, "pitch": -82.8424072265625, "yaw": -92.7630615234375, "gps_latitude": 45.458141854500006, "gps_longitude": -122.85453832516666, "gps_altitude": 133.7428, "gps_fix": "GPS_FIX", "gps_satellites": 13, "gps_hdop": 1.0, "gps_speed_kmh": 2.067, "orientation": 197.8, "gps_solution_status": "INSUFFICIENT_OBS", "gps_position_type": "NONE"}
{"frame_index": 58, "ts_unix": 1780539473.9822, "ts_capture": 1780539473.9219, "relative_time": 3.8802, "linear_velocity": 0.0, "angular_velocity": 0.0, "robot_locked": false, "braking": false, "accelerometer_x": 0.9970703125, "accelerometer_y": -0.00048828125, "accelerometer_z": -0.12548828125, "gyroscope_x": 0.0, "gyroscope_y": 0.0, "gyroscope_z": 0.0, "magnetometer_x": -16606.0, "magnetometer_y": 582.0, "magnetometer_z": 4525.0, "roll": -179.813232421875, "pitch": -82.8424072265625, "yaw": -92.7630615234375, "gps_latitude": 45.458141854500006, "gps_longitude": -122.85453832516666, "gps_altitude": 133.7428, "gps_fix": "GPS_FIX", "gps_satellites": 13, "gps_hdop": 1.0, "gps_speed_kmh": 2.067, "orientation": 197.8, "gps_solution_status": "INSUFFICIENT_OBS", "gps_position_type": "NONE"}
{"frame_index": 59, "ts_unix": 1780539474.0501, "ts_capture": 1780539473.9889, "relative_time": 3.9481, "linear_velocity": 0.0, "angular_velocity": 0.0, "robot_locked": false, "braking": false, "accelerometer_x": 0.99755859375, "accelerometer_y": -0.0009765625, "accelerometer_z": -0.125, "gyroscope_x": 0.0, "gyroscope_y": 0.0, "gyroscope_z": 0.0, "magnetometer_x": -16606.0, "magnetometer_y": 582.0, "magnetometer_z": 4525.0, "roll": -179.813232421875, "pitch": -82.8424072265625, "yaw": -92.7630615234375, "gps_latitude": 45.458141854500006, "gps_longitude": -122.85453832516666, "gps_altitude": 133.7428, "gps_fix": "GPS_FIX", "gps_satellites": 13, "gps_hdop": 1.0, "gps_speed_kmh": 2.067, "orientation": 197.8, "gps_solution_status": "INSUFFICIENT_OBS", "gps_position_type": "NONE"}
{"frame_index": 60, "ts_unix": 1780539474.1177, "ts_capture": 1780539474.0566, "relative_time": 4.0157, "linear_velocity": 0.0, "angular_velocity": 0.0, "robot_locked": false, "braking": false, "accelerometer_x": 0.99755859375, "accelerometer_y": -0.0009765625, "accelerometer_z": -0.125, "gyroscope_x": 0.0, "gyroscope_y": 0.0, "gyroscope_z": 0.0, "magnetometer_x": -16619.0, "magnetometer_y": 560.0, "magnetometer_z": 4525.0, "roll": -179.813232421875, "pitch": -82.8424072265625, "yaw": -92.7630615234375, "gps_latitude": 45.458141854500006, "gps_longitude": -122.85453832516666, "gps_altitude": 133.7428, "gps_fix": "GPS_FIX", "gps_satellites": 13, "gps_hdop": 1.0, "gps_speed_kmh": 2.067, "orientation": 197.8, "gps_solution_status": "INSUFFICIENT_OBS", "gps_position_type": "NONE"}
{"frame_index": 61, "ts_unix": 1780539474.1831, "ts_capture": 1780539474.1222, "relative_time": 4.0811, "linear_velocity": 0.0, "angular_velocity": 0.0, "robot_locked": false, "braking": false, "accelerometer_x": 0.99755859375, "accelerometer_y": -0.00048828125, "accelerometer_z": -0.12548828125, "gyroscope_x": 0.0, "gyroscope_y": 0.0, "gyroscope_z": 0.0, "magnetometer_x": -16619.0, "magnetometer_y": 589.0, "magnetometer_z": 4518.0, "roll": -179.813232421875, "pitch": -82.8424072265625, "yaw": -92.7630615234375, "gps_latitude": 45.458141854500006, "gps_longitude": -122.85453832516666, "gps_altitude": 133.7428, "gps_fix": "GPS_FIX", "gps_satellites": 13, "gps_hdop": 1.0, "gps_speed_kmh": 2.067, "orientation": 197.8, "gps_solution_status": "INSUFFICIENT_OBS", "gps_position_type": "NONE"}
{"frame_index": 62, "ts_unix": 1780539474.2502, "ts_capture": 1780539474.1888, "relative_time": 4.1482, "linear_velocity": 0.0, "angular_velocity": 0.0, "robot_locked": false, "braking": false, "accelerometer_x": 0.9970703125, "accelerometer_y": 0.0, "accelerometer_z": -0.1259765625, "gyroscope_x": 0.0, "gyroscope_y": 0.0, "gyroscope_z": 0.0, "magnetometer_x": -16619.0, "magnetometer_y": 589.0, "magnetometer_z": 4518.0, "roll": -179.813232421875, "pitch": -82.8424072265625, "yaw": -92.7630615234375, "gps_latitude": 45.458141854500006, "gps_longitude": -122.85453832516666, "gps_altitude": 133.7428, "gps_fix": "GPS_FIX", "gps_satellites": 13, "gps_hdop": 1.0, "gps_speed_kmh": 2.067, "orientation": 197.8, "gps_solution_status": "INSUFFICIENT_OBS", "gps_position_type": "NONE"}
{"frame_index": 63, "ts_unix": 1780539474.3173, "ts_capture": 1780539474.2559, "relative_time": 4.2153, "linear_velocity": 0.0, "angular_velocity": 0.0, "robot_locked": false, "braking": false, "accelerometer_x": 0.9970703125, "accelerometer_y": 0.0, "accelerometer_z": -0.1259765625, "gyroscope_x": 0.0, "gyroscope_y": 0.0, "gyroscope_z": 0.0, "magnetometer_x": -16605.0, "magnetometer_y": 593.0, "magnetometer_z": 4537.0, "roll": -179.813232421875, "pitch": -82.8424072265625, "yaw": -92.7630615234375, "gps_latitude": 45.458141854500006, "gps_longitude": -122.85453832516666, "gps_altitude": 133.7428, "gps_fix": "GPS_FIX", "gps_satellites": 13, "gps_hdop": 1.0, "gps_speed_kmh": 2.067, "orientation": 197.8, "gps_solution_status": "INSUFFICIENT_OBS", "gps_position_type": "NONE"}
{"frame_index": 64, "ts_unix": 1780539474.3819, "ts_capture": 1780539474.3235, "relative_time": 4.2799, "linear_velocity": 0.0, "angular_velocity": 0.0, "robot_locked": false, "braking": false, "accelerometer_x": 0.9970703125, "accelerometer_y": -0.0009765625, "accelerometer_z": -0.12548828125, "gyroscope_x": 0.0, "gyroscope_y": 0.0, "gyroscope_z": 0.0, "magnetometer_x": -16616.0, "magnetometer_y": 591.0, "magnetometer_z": 4525.0, "roll": -179.8077392578125, "pitch": -82.8424072265625, "yaw": -92.7630615234375, "gps_latitude": 45.458141854500006, "gps_longitude": -122.85453832516666, "gps_altitude": 133.7428, "gps_fix": "GPS_FIX", "gps_satellites": 13, "gps_hdop": 1.0, "gps_speed_kmh": 2.067, "orientation": 197.8, "gps_solution_status": "INSUFFICIENT_OBS", "gps_position_type": "NONE"}
{"frame_index": 65, "ts_unix": 1780539474.4506, "ts_capture": 1780539474.3902, "relative_time": 4.3486, "linear_velocity": 0.0, "angular_velocity": 0.0, "robot_locked": false, "braking": false, "accelerometer_x": 0.99609375, "accelerometer_y": 0.0, "accelerometer_z": -0.12548828125, "gyroscope_x": 0.0, "gyroscope_y": 0.0, "gyroscope_z": 0.0, "magnetometer_x": -16616.0, "magnetometer_y": 591.0, "magnetometer_z": 4525.0, "roll": -179.8077392578125, "pitch": -82.8424072265625, "yaw": -92.7630615234375, "gps_latitude": 45.458141854500006, "gps_longitude": -122.85453832516666, "gps_altitude": 133.7428, "gps_fix": "GPS_FIX", "gps_satellites": 13, "gps_hdop": 1.0, "gps_speed_kmh": 2.067, "orientation": 197.8, "gps_solution_status": "INSUFFICIENT_OBS", "gps_position_type": "NONE"}
{"frame_index": 66, "ts_unix": 1780539474.517, "ts_capture": 1780539474.4562, "relative_time": 4.415, "linear_velocity": 0.0, "angular_velocity": 0.0, "robot_locked": false, "braking": false, "accelerometer_x": 0.99609375, "accelerometer_y": 0.0, "accelerometer_z": -0.12548828125, "gyroscope_x": 0.0, "gyroscope_y": 0.0, "gyroscope_z": 0.0, "magnetometer_x": -16608.0, "magnetometer_y": 596.0, "magnetometer_z": 4552.0, "roll": -179.80224609375, "pitch": -82.8424072265625, "yaw": -92.7630615234375, "gps_latitude": 45.458141854500006, "gps_longitude": -122.85453832516666, "gps_altitude": 133.7428, "gps_fix": "GPS_FIX", "gps_satellites": 13, "gps_hdop": 1.0, "gps_speed_kmh": 2.067, "orientation": 197.8, "gps_solution_status": "INSUFFICIENT_OBS", "gps_position_type": "NONE"}
{"frame_index": 67, "ts_unix": 1780539474.5824, "ts_capture": 1780539474.5232, "relative_time": 4.4804, "linear_velocity": 0.0, "angular_velocity": 0.0, "robot_locked": false, "braking": false, "accelerometer_x": 0.99560546875, "accelerometer_y": 0.0, "accelerometer_z": -0.125, "gyroscope_x": 0.0, "gyroscope_y": 0.0, "gyroscope_z": 0.0, "magnetometer_x": -16622.0, "magnetometer_y": 591.0, "magnetometer_z": 4518.0, "roll": -179.80224609375, "pitch": -82.8424072265625, "yaw": -92.7630615234375, "gps_latitude": 45.458141854500006, "gps_longitude": -122.85453832516666, "gps_altitude": 133.7428, "gps_fix": "GPS_FIX", "gps_satellites": 13, "gps_hdop": 1.0, "gps_speed_kmh": 2.067, "orientation": 197.8, "gps_solution_status": "INSUFFICIENT_OBS", "gps_position_type": "NONE"}
{"frame_index": 68, "ts_unix": 1780539474.6522, "ts_capture": 1780539474.5927, "relative_time": 4.5502, "linear_velocity": 0.0, "angular_velocity": 0.0, "robot_locked": false, "braking": false, "accelerometer_x": 0.99951171875, "accelerometer_y": -0.0009765625, "accelerometer_z": -0.1259765625, "gyroscope_x": 0.0, "gyroscope_y": 0.0, "gyroscope_z": 0.0, "magnetometer_x": -16642.0, "magnetometer_y": 587.0, "magnetometer_z": 4510.0, "roll": -179.8077392578125, "pitch": -82.8424072265625, "yaw": -92.7630615234375, "gps_latitude": 45.458141854500006, "gps_longitude": -122.85453832516666, "gps_altitude": 133.7428, "gps_fix": "GPS_FIX", "gps_satellites": 13, "gps_hdop": 1.0, "gps_speed_kmh": 2.067, "orientation": 197.8, "gps_solution_status": "INSUFFICIENT_OBS", "gps_position_type": "NONE"}
{"frame_index": 69, "ts_unix": 1780539474.7171, "ts_capture": 1780539474.6566, "relative_time": 4.6151, "linear_velocity": 0.0, "angular_velocity": 0.0, "robot_locked": false, "braking": false, "accelerometer_x": 0.99951171875, "accelerometer_y": -0.0009765625, "accelerometer_z": -0.1259765625, "gyroscope_x": 0.0, "gyroscope_y": 0.0, "gyroscope_z": 0.0, "magnetometer_x": -16642.0, "magnetometer_y": 587.0, "magnetometer_z": 4510.0, "roll": -179.8077392578125, "pitch": -82.8424072265625, "yaw": -92.7630615234375, "gps_latitude": 45.458141854500006, "gps_longitude": -122.85453832516666, "gps_altitude": 133.7428, "gps_fix": "GPS_FIX", "gps_satellites": 13, "gps_hdop": 1.0, "gps_speed_kmh": 2.067, "orientation": 197.8, "gps_solution_status": "INSUFFICIENT_OBS", "gps_position_type": "NONE"}
{"frame_index": 70, "ts_unix": 1780539474.7834, "ts_capture": 1780539474.7235, "relative_time": 4.6814, "linear_velocity": 0.0, "angular_velocity": 0.0, "robot_locked": false, "braking": false, "accelerometer_x": 0.99658203125, "accelerometer_y": 0.0, "accelerometer_z": -0.12548828125, "gyroscope_x": 0.0, "gyroscope_y": 0.0, "gyroscope_z": 0.0, "magnetometer_x": -16606.0, "magnetometer_y": 595.0, "magnetometer_z": 4545.0, "roll": -179.813232421875, "pitch": -82.8424072265625, "yaw": -92.7630615234375, "gps_latitude": 45.458141854500006, "gps_longitude": -122.85453832516666, "gps_altitude": 133.7428, "gps_fix": "GPS_FIX", "gps_satellites": 13, "gps_hdop": 1.0, "gps_speed_kmh": 2.067, "orientation": 197.8, "gps_solution_status": "INSUFFICIENT_OBS", "gps_position_type": "NONE"}
{"frame_index": 71, "ts_unix": 1780539474.8508, "ts_capture": 1780539474.7904, "relative_time": 4.7488, "linear_velocity": 0.0, "angular_velocity": 0.0, "robot_locked": false, "braking": false, "accelerometer_x": 0.99658203125, "accelerometer_y": -0.00048828125, "accelerometer_z": -0.12548828125, "gyroscope_x": 0.0, "gyroscope_y": 0.0, "gyroscope_z": 0.0, "magnetometer_x": -16606.0, "magnetometer_y": 595.0, "magnetometer_z": 4545.0, "roll": -179.813232421875, "pitch": -82.8424072265625, "yaw": -92.7630615234375, "gps_latitude": 45.458141854500006, "gps_longitude": -122.85453832516666, "gps_altitude": 133.7428, "gps_fix": "GPS_FIX", "gps_satellites": 13, "gps_hdop": 1.0, "gps_speed_kmh": 2.067, "orientation": 197.8, "gps_solution_status": "INSUFFICIENT_OBS", "gps_position_type": "NONE"}
{"frame_index": 72, "ts_unix": 1780539474.918, "ts_capture": 1780539474.857, "relative_time": 4.816, "linear_velocity": 0.0, "angular_velocity": 0.0, "robot_locked": false, "braking": false, "accelerometer_x": 0.994140625, "accelerometer_y": 0.0, "accelerometer_z": -0.1240234375, "gyroscope_x": 0.0, "gyroscope_y": 0.0, "gyroscope_z": 0.0, "magnetometer_x": -16598.0, "magnetometer_y": 590.0, "magnetometer_z": 4506.0, "roll": -179.813232421875, "pitch": -82.8424072265625, "yaw": -92.7630615234375, "gps_latitude": 45.458141854500006, "gps_longitude": -122.85453832516666, "gps_altitude": 133.7428, "gps_fix": "GPS_FIX", "gps_satellites": 13, "gps_hdop": 1.0, "gps_speed_kmh": 2.067, "orientation": 197.8, "gps_solution_status": "INSUFFICIENT_OBS", "gps_position_type": "NONE"}
{"frame_index": 73, "ts_unix": 1780539474.9832, "ts_capture": 1780539474.9239, "relative_time": 4.8812, "linear_velocity": 0.0, "angular_velocity": 0.0, "robot_locked": false, "braking": false, "accelerometer_x": 0.994140625, "accelerometer_y": 0.0, "accelerometer_z": -0.1240234375, "gyroscope_x": 0.0, "gyroscope_y": 0.0, "gyroscope_z": 0.0, "magnetometer_x": -16612.0, "magnetometer_y": 588.0, "magnetometer_z": 4528.0, "roll": -179.8077392578125, "pitch": -82.8369140625, "yaw": -92.7630615234375, "gps_latitude": 45.458141854500006, "gps_longitude": -122.85453832516666, "gps_altitude": 133.7428, "gps_fix": "GPS_FIX", "gps_satellites": 13, "gps_hdop": 1.0, "gps_speed_kmh": 2.067, "orientation": 197.8, "gps_solution_status": "INSUFFICIENT_OBS", "gps_position_type": "NONE"}
{"frame_index": 74, "ts_unix": 1780539475.0511, "ts_capture": 1780539474.9933, "relative_time": 4.9491, "linear_velocity": 0.0, "angular_velocity": 0.0, "robot_locked": false, "braking": false, "accelerometer_x": 0.998046875, "accelerometer_y": -0.0009765625, "accelerometer_z": -0.12646484375, "gyroscope_x": 0.0, "gyroscope_y": 0.0, "gyroscope_z": 0.0, "magnetometer_x": -16616.0, "magnetometer_y": 588.0, "magnetometer_z": 4527.0, "roll": -179.8077392578125, "pitch": -82.8424072265625, "yaw": -92.7630615234375, "gps_latitude": 45.458141854500006, "gps_longitude": -122.85453832516666, "gps_altitude": 133.7428, "gps_fix": "GPS_FIX", "gps_satellites": 13, "gps_hdop": 1.0, "gps_speed_kmh": 2.067, "orientation": 197.8, "gps_solution_status": "INSUFFICIENT_OBS", "gps_position_type": "NONE"}
{"frame_index": 75, "ts_unix": 1780539475.1205, "ts_capture": 1780539475.0585, "relative_time": 5.0185, "linear_velocity": 0.0, "angular_velocity": 0.0, "robot_locked": false, "braking": false, "accelerometer_x": 0.99658203125, "accelerometer_y": 0.0, "accelerometer_z": -0.1259765625, "gyroscope_x": 0.0, "gyroscope_y": 0.0, "gyroscope_z": 0.0, "magnetometer_x": -16616.0, "magnetometer_y": 588.0, "magnetometer_z": 4527.0, "roll": -179.8077392578125, "pitch": -82.8424072265625, "yaw": -92.7630615234375, "gps_latitude": 45.458141854500006, "gps_longitude": -122.85453832516666, "gps_altitude": 133.7428, "gps_fix": "GPS_FIX", "gps_satellites": 13, "gps_hdop": 1.0, "gps_speed_kmh": 2.067, "orientation": 197.8, "gps_solution_status": "INSUFFICIENT_OBS", "gps_position_type": "NONE"}
